[
  {
    "id": "5",
    "name": "Animal Place's Vegan Republic",
    "lat": "37.87",
    "lng": "-122.28",
    "category": "grocery",
    "address": "1624 University Ave",
    "address2": "",
    "city": "Berkeley",
    "state": "CA",
    "postal": "94703",
    "phone": "n/a",
    "web": "n/a"
  },
  {
    "id": "61",
    "name": "Firefly Cafe And Outpost",
    "lat": "40.33",
    "lng": "-75.64",
    "category": "grocery",
    "address": "12 N READING AVE",
    "address2": "",
    "city": "BOYERTOWN",
    "state": "PA",
    "postal": "19512",
    "phone": "n/a",
    "web": "n/a"
  },
  {
    "id": "77",
    "name": "Follow Your Heart Market And Cafe",
    "lat": "34.2",
    "lng": "-118.59",
    "category": "grocery",
    "address": "2185 SHERMAN WAY",
    "address2": "",
    "city": "CANOGA PARK",
    "state": "CA",
    "postal": "91303",
    "phone": "n/a",
    "web": "n/a"
  },
  {
    "id": "38",
    "name": "Food Fight Grocery! Halsey",
    "lat": "45.53",
    "lng": "-122.55",
    "category": "grocery",
    "address": "11155 NE HALSEY",
    "address2": "",
    "city": "PORTLAND",
    "state": "OR",
    "postal": "97220",
    "phone": "n/a",
    "web": "n/a"
  },
  {
    "id": "2",
    "name": "Food Fight! Grocery Stark",
    "lat": "45.52",
    "lng": "-122.65",
    "category": "grocery",
    "address": "1217 SE Stark St",
    "address2": "",
    "city": "Portland",
    "state": "OR",
    "postal": "97214",
    "phone": "n/a",
    "web": "n/a"
  },
  {
    "id": "63",
    "name": "Jet Black Coffee Company",
    "lat": "45.53",
    "lng": "-122.55",
    "category": "grocery",
    "address": "11150 NE WEIDLER ST",
    "address2": "",
    "city": "PORTLAND",
    "state": "OR",
    "postal": "97220",
    "phone": "n/a",
    "web": "n/a"
  },
  {
    "id": "65",
    "name": "Maiale Rosa",
    "lat": "45.49",
    "lng": "-122.8",
    "category": "grocery",
    "address": "4725 SW LOMBARD AVE",
    "address2": "SUITE 9",
    "city": "BEAVERTON",
    "state": "OR",
    "postal": "97005",
    "phone": "n/a",
    "web": "n/a"
  },
  {
    "id": "41",
    "name": "Market Of Choice - Beaverton",
    "lat": "45.52",
    "lng": "-122.8",
    "category": "grocery",
    "address": "250 NW LOST SPRINGS TERRACE",
    "address2": "",
    "city": "BEAVERTON",
    "state": "OR",
    "postal": "97005",
    "phone": "n/a",
    "web": "n/a"
  },
  {
    "id": "40",
    "name": "Market Of Choice - Bend",
    "lat": "44.05",
    "lng": "-121.31",
    "category": "grocery",
    "address": "115 NW SISEMORE",
    "address2": "",
    "city": "BEND",
    "state": "OR",
    "postal": "97701",
    "phone": "n/a",
    "web": "n/a"
  },
  {
    "id": "15",
    "name": "Market Of Choice ~ Eugene",
    "lat": "44.03",
    "lng": "-123.09",
    "category": "grocery",
    "address": "2862 WILLAMETTE ST",
    "address2": "",
    "city": "EUGENE",
    "state": "OR",
    "postal": "97405",
    "phone": "n/a",
    "web": "n/a"
  },
  {
    "id": "42",
    "name": "Moscow Food Co-Op",
    "lat": "46.73",
    "lng": "-117",
    "category": "grocery",
    "address": "121 E. 5th St",
    "address2": "",
    "city": "Moscow",
    "state": "ID",
    "postal": "83843",
    "phone": "n/a",
    "web": "n/a"
  },
  {
    "id": "56",
    "name": "Mylk Guys Market",
    "lat": "37.78",
    "lng": "-122.42",
    "category": "grocery",
    "address": "55 9th Street",
    "address2": "",
    "city": "San Francisco",
    "state": "CA",
    "postal": "94103",
    "phone": "n/a",
    "web": "n/a"
  },
  {
    "id": "44",
    "name": "Natural Grocers - Bend",
    "lat": "44.08",
    "lng": "-121.3",
    "category": "grocery",
    "address": "3188 N Highway 97 Suite 115",
    "address2": "",
    "city": "Bend",
    "state": "OR",
    "postal": "97701",
    "phone": "n/a",
    "web": "n/a"
  },
  {
    "id": "45",
    "name": "Natural Grocers - Clackamas",
    "lat": "45.44",
    "lng": "-122.58",
    "category": "grocery",
    "address": "11424 SE 82nd Ave",
    "address2": "",
    "city": "Happy Valley",
    "state": "OR",
    "postal": "97068",
    "phone": "n/a",
    "web": "n/a"
  },
  {
    "id": "3",
    "name": "Natural Grocers ~ Beaverton",
    "lat": "45.49",
    "lng": "-122.8",
    "category": "grocery",
    "address": "12155 SW Broadway St",
    "address2": "",
    "city": "Beaverton",
    "state": "OR",
    "postal": "97005",
    "phone": "n/a",
    "web": "n/a"
  },
  {
    "id": "16",
    "name": "Natural Grocers ~ Vancouver, Wa",
    "lat": "45.68",
    "lng": "-122.67",
    "category": "grocery",
    "address": "7604 NE 5TH AVE. #100",
    "address2": "",
    "city": "Vancouver",
    "state": "WA",
    "postal": "98665",
    "phone": "n/a",
    "web": "n/a"
  },
  {
    "id": "67",
    "name": "Natural Grocers- Corvalis",
    "lat": "44.58",
    "lng": "-123.26",
    "category": "grocery",
    "address": "1235 NW 10th St",
    "address2": "",
    "city": "CORVALIS",
    "state": "OR",
    "postal": "97330",
    "phone": "n/a",
    "web": "n/a"
  },
  {
    "id": "20",
    "name": "Nooch Vegan Market",
    "lat": "39.72",
    "lng": "-104.99",
    "category": "grocery",
    "address": "10 E. Ellsworth Avenue",
    "address2": "",
    "city": "Denver",
    "state": "CO",
    "postal": "80209",
    "phone": "n/a",
    "web": "n/a"
  },
  {
    "id": "47",
    "name": "Olympia Food Co-Op East",
    "lat": "47.04",
    "lng": "-122.86",
    "category": "grocery",
    "address": "3111 Pacific Ave SE",
    "address2": "",
    "city": "Olympia",
    "state": "WA",
    "postal": "98501",
    "phone": "n/a",
    "web": "n/a"
  },
  {
    "id": "48",
    "name": "Orchard Grocer",
    "lat": "40.72",
    "lng": "-73.99",
    "category": "grocery",
    "address": "78 Orchard Street",
    "address2": "",
    "city": "New York",
    "state": "NY",
    "postal": "10002",
    "phone": "n/a",
    "web": "n/a"
  },
  {
    "id": "25",
    "name": "People's Food Co-Op",
    "lat": "45.5",
    "lng": "-122.64",
    "category": "grocery",
    "address": "3029 SE 21st Avenue",
    "address2": "",
    "city": "Portland",
    "state": "OR",
    "postal": "97202",
    "phone": "n/a",
    "web": "n/a"
  },
  {
    "id": "29",
    "name": "Riverdel ~ Fine Foods",
    "lat": "40.67",
    "lng": "-73.96",
    "category": "grocery",
    "address": "820 WASHINGTON AVENUE",
    "address2": "",
    "city": "Brooklyn",
    "state": "NY",
    "postal": "11238",
    "phone": "n/a",
    "web": "n/a"
  },
  {
    "id": "30",
    "name": "Sundance Natural Foods",
    "lat": "44.03",
    "lng": "-123.08",
    "category": "grocery",
    "address": "748 E 24th Avenue",
    "address2": "",
    "city": "Eugene",
    "state": "OR",
    "postal": "97405",
    "phone": "n/a",
    "web": "n/a"
  },
  {
    "id": "79",
    "name": "The Green Spork Cafe & Market",
    "lat": "31.94",
    "lng": "-81.3",
    "category": "grocery",
    "address": "10747 Ford Ave",
    "address2": "",
    "city": "Richmond Hill",
    "state": "GA",
    "postal": "31324",
    "phone": "n/a",
    "web": "n/a"
  },
  {
    "id": "31",
    "name": "The Kiva Grocery",
    "lat": "44.05",
    "lng": "-123.09",
    "category": "grocery",
    "address": "125 W. 11TH AVENUE",
    "address2": "",
    "city": "Eugene",
    "state": "OR",
    "postal": "97401",
    "phone": "n/a",
    "web": "n/a"
  },
  {
    "id": "60",
    "name": "The Lost Beans",
    "lat": "45.48",
    "lng": "-122.78",
    "category": "grocery",
    "address": "4810 SW WESTERN AVE.",
    "address2": "",
    "city": "BEAVERTON",
    "state": "Oregon",
    "postal": "97005",
    "phone": "n/a",
    "web": "n/a"
  },
  {
    "id": "32",
    "name": "Vegan Essentials (Online)",
    "lat": "43.02",
    "lng": "-88.2",
    "category": "grocery",
    "address": "",
    "address2": "",
    "city": "WAUKESHA",
    "state": "WI",
    "postal": "53186",
    "phone": "n/a",
    "web": "n/a"
  },
  {
    "id": "33",
    "name": "Vegan Haven",
    "lat": "47.67",
    "lng": "-122.31",
    "category": "grocery",
    "address": "5270 B University Way NE",
    "address2": "",
    "city": "Seattle",
    "state": "WA",
    "postal": "98105",
    "phone": "n/a",
    "web": "n/a"
  },
  {
    "id": "34",
    "name": "Vegan Supply (Online)",
    "lat": "56.13",
    "lng": "-106.35",
    "category": "grocery",
    "address": "",
    "address2": "",
    "city": "Canada",
    "state": "",
    "postal": "",
    "phone": "n/a",
    "web": "n/a"
  },
  {
    "id": "50",
    "name": "Whole Foods Market - Bridgeport",
    "lat": "45.39",
    "lng": "-122.75",
    "category": "grocery",
    "address": "7380 SW Bridgeport Rd",
    "address2": "",
    "city": "Tigard",
    "state": "OR",
    "postal": "97224",
    "phone": "n/a",
    "web": "n/a"
  },
  {
    "id": "35",
    "name": "Whole Foods Market - Hollywood (Portland)",
    "lat": "45.54",
    "lng": "-122.62",
    "category": "grocery",
    "address": "4301 NE Sandy Blvd.",
    "address2": "",
    "city": "Portland",
    "state": "Oregon",
    "postal": "97213",
    "phone": "n/a",
    "web": "n/a"
  },
  {
    "id": "52",
    "name": "Whole Foods Market - Tanasbourne",
    "lat": "45.53",
    "lng": "-122.88",
    "category": "grocery",
    "address": "19440 NW CORNELL RD",
    "address2": "",
    "city": "Hillsboro",
    "state": "OR",
    "postal": "97124",
    "phone": "n/a",
    "web": "n/a"
  },
  {
    "id": "78",
    "name": "Whole Foods Market- Greenway",
    "lat": "45.44",
    "lng": "-122.8",
    "category": "grocery",
    "address": "12220 SW Scholls Ferry Rd",
    "address2": "",
    "city": "Tigard",
    "state": "OR",
    "postal": "97223",
    "phone": "n/a",
    "web": "n/a"
  },
  {
    "id": "79",
    "name": "Earthly Gourmet",
    "lat": "45.496750",
    "lng": "-122.648330",
    "category": "distributor",
    "address": "2143 SE Lafayette St",
    "address2": "",
    "city": "Portland",
    "state": "OR",
    "postal": "97202",
    "phone": "n/a",
    "web": "n/a"
  }
]