[
  {
    "id": "5",
    "name": "Animal Place's Vegan Republic",
    "lat": "37.87",
    "lng": "-122.28",
    "category": "Grocery",
    "address": "1624 University Ave",
    "address2": "",
    "city": "Berkeley",
    "state": "CA",
    "postal": "94703",
    "phone": "",
    "web": ""
  },
  {
    "id": "61",
    "name": "Firefly Cafe And Outpost",
    "lat": "40.33",
    "lng": "-75.64",
    "category": "Grocery",
    "address": "12 N READING AVE",
    "address2": "",
    "city": "BOYERTOWN",
    "state": "PA",
    "postal": "19512",
    "phone": "",
    "web": ""
  },
  {
    "id": "77",
    "name": "Follow Your Heart Market And Cafe",
    "lat": "34.2",
    "lng": "-118.59",
    "category": "Grocery",
    "address": "2185 SHERMAN WAY",
    "address2": "",
    "city": "CANOGA PARK",
    "state": "CA",
    "postal": "91303",
    "phone": "",
    "web": ""
  },
  {
    "id": "38",
    "name": "Food Fight Grocery! Halsey",
    "lat": "45.53",
    "lng": "-122.55",
    "category": "Grocery",
    "address": "11155 NE HALSEY",
    "address2": "",
    "city": "PORTLAND",
    "state": "OR",
    "postal": "97220",
    "phone": "",
    "web": ""
  },
  {
    "id": "2",
    "name": "Food Fight! Grocery Stark",
    "lat": "45.52",
    "lng": "-122.65",
    "category": "Grocery",
    "address": "1217 SE Stark St",
    "address2": "",
    "city": "Portland",
    "state": "OR",
    "postal": "97214",
    "phone": "",
    "web": ""
  },
  {
    "id": "63",
    "name": "Jet Black Coffee Company",
    "lat": "45.53",
    "lng": "-122.55",
    "category": "Restaurant",
    "address": "11150 NE WEIDLER ST",
    "address2": "",
    "city": "PORTLAND",
    "state": "OR",
    "postal": "97220",
    "phone": "",
    "web": ""
  },
  {
    "id": "65",
    "name": "Maiale Rosa",
    "lat": "45.49",
    "lng": "-122.8",
    "category": "Restaurant",
    "address": "4725 SW LOMBARD AVE",
    "address2": "SUITE 9",
    "city": "BEAVERTON",
    "state": "OR",
    "postal": "97005",
    "phone": "",
    "web": ""
  },
  {
    "id": "41",
    "name": "Market Of Choice - Beaverton",
    "lat": "45.52",
    "lng": "-122.8",
    "category": "Grocery",
    "address": "250 NW LOST SPRINGS TERRACE",
    "address2": "",
    "city": "BEAVERTON",
    "state": "OR",
    "postal": "97005",
    "phone": "",
    "web": ""
  },
  {
    "id": "40",
    "name": "Market Of Choice - Bend",
    "lat": "44.05",
    "lng": "-121.31",
    "category": "Grocery",
    "address": "115 NW SISEMORE",
    "address2": "",
    "city": "BEND",
    "state": "OR",
    "postal": "97701",
    "phone": "",
    "web": ""
  },
  {
    "id": "15",
    "name": "Market Of Choice ~ Eugene",
    "lat": "44.03",
    "lng": "-123.09",
    "category": "Grocery",
    "address": "2862 WILLAMETTE ST",
    "address2": "",
    "city": "EUGENE",
    "state": "OR",
    "postal": "97405",
    "phone": "",
    "web": ""
  },
  {
    "id": "42",
    "name": "Moscow Food Co-Op",
    "lat": "46.73",
    "lng": "-117",
    "category": "Grocery",
    "address": "121 E. 5th St",
    "address2": "",
    "city": "Moscow",
    "state": "ID",
    "postal": "83843",
    "phone": "",
    "web": ""
  },
  {
    "id": "56",
    "name": "Mylk Guys Market",
    "lat": "37.78",
    "lng": "-122.42",
    "category": "Grocery/Distributor",
    "address": "55 9th Street",
    "address2": "",
    "city": "San Francisco",
    "state": "CA",
    "postal": "94103",
    "phone": "",
    "web": "http://mylkguys.com"
  },
  {
    "id": "44",
    "name": "Natural Grocers - Bend",
    "lat": "44.08",
    "lng": "-121.3",
    "category": "Grocery",
    "address": "3188 N Highway 97 Suite 115",
    "address2": "",
    "city": "Bend",
    "state": "OR",
    "postal": "97701",
    "phone": "",
    "web": ""
  },
  {
    "id": "45",
    "name": "Natural Grocers - Clackamas",
    "lat": "45.44",
    "lng": "-122.58",
    "category": "Grocery",
    "address": "11424 SE 82nd Ave",
    "address2": "",
    "city": "Happy Valley",
    "state": "OR",
    "postal": "97068",
    "phone": "",
    "web": ""
  },
  {
    "id": "3",
    "name": "Natural Grocers ~ Beaverton",
    "lat": "45.49",
    "lng": "-122.8",
    "category": "Grocery",
    "address": "12155 SW Broadway St",
    "address2": "",
    "city": "Beaverton",
    "state": "OR",
    "postal": "97005",
    "phone": "",
    "web": ""
  },
  {
    "id": "16",
    "name": "Natural Grocers ~ Vancouver, Wa",
    "lat": "45.68",
    "lng": "-122.67",
    "category": "Grocery",
    "address": "7604 NE 5TH AVE. #100",
    "address2": "",
    "city": "Vancouver",
    "state": "WA",
    "postal": "98665",
    "phone": "",
    "web": ""
  },
  {
    "id": "67",
    "name": "Natural Grocers - Corvalis",
    "lat": "44.58",
    "lng": "-123.26",
    "category": "Grocery",
    "address": "1235 NW 10th St",
    "address2": "",
    "city": "CORVALIS",
    "state": "OR",
    "postal": "97330",
    "phone": "",
    "web": ""
  },
  {
    "id": "20",
    "name": "Nooch Vegan Market",
    "lat": "39.72",
    "lng": "-104.99",
    "category": "Grocery",
    "address": "10 E. Ellsworth Avenue",
    "address2": "",
    "city": "Denver",
    "state": "CO",
    "postal": "80209",
    "phone": "",
    "web": ""
  },
  {
    "id": "47",
    "name": "Olympia Food Co-Op East",
    "lat": "47.04",
    "lng": "-122.86",
    "category": "Grocery",
    "address": "3111 Pacific Ave SE",
    "address2": "",
    "city": "Olympia",
    "state": "WA",
    "postal": "98501",
    "phone": "",
    "web": ""
  },
  {
    "id": "48",
    "name": "Orchard Grocer",
    "lat": "40.72",
    "lng": "-73.99",
    "category": "Grocery",
    "address": "78 Orchard Street",
    "address2": "",
    "city": "New York",
    "state": "NY",
    "postal": "10002",
    "phone": "",
    "web": ""
  },
  {
    "id": "25",
    "name": "People's Food Co-Op",
    "lat": "45.5",
    "lng": "-122.64",
    "category": "Grocery",
    "address": "3029 SE 21st Avenue",
    "address2": "",
    "city": "Portland",
    "state": "OR",
    "postal": "97202",
    "phone": "",
    "web": ""
  },
  {
    "id": "29",
    "name": "Riverdel ~ Fine Foods",
    "lat": "40.67",
    "lng": "-73.96",
    "category": "Grocery",
    "address": "820 WASHINGTON AVENUE",
    "address2": "",
    "city": "Brooklyn",
    "state": "NY",
    "postal": "11238",
    "phone": "",
    "web": ""
  },
  {
    "id": "30",
    "name": "Sundance Natural Foods",
    "lat": "44.03",
    "lng": "-123.08",
    "category": "Grocery",
    "address": "748 E 24th Avenue",
    "address2": "",
    "city": "Eugene",
    "state": "OR",
    "postal": "97405",
    "phone": "",
    "web": ""
  },
  {
    "id": "79",
    "name": "The Green Spork Cafe & Market",
    "lat": "31.94",
    "lng": "-81.3",
    "category": "Grocery",
    "address": "10747 Ford Ave",
    "address2": "",
    "city": "Richmond Hill",
    "state": "GA",
    "postal": "31324",
    "phone": "",
    "web": ""
  },
  {
    "id": "31",
    "name": "The Kiva Grocery",
    "lat": "44.05",
    "lng": "-123.09",
    "category": "Grocery",
    "address": "125 W. 11TH AVENUE",
    "address2": "",
    "city": "Eugene",
    "state": "OR",
    "postal": "97401",
    "phone": "",
    "web": ""
  },
  {
    "id": "60",
    "name": "The Lost Beans",
    "lat": "45.48",
    "lng": "-122.78",
    "category": "Restaurant",
    "address": "4810 SW WESTERN AVE.",
    "address2": "",
    "city": "BEAVERTON",
    "state": "Oregon",
    "postal": "97005",
    "phone": "",
    "web": ""
  },
  {
    "id": "32",
    "name": "Vegan Essentials (Online)",
    "lat": "43.02",
    "lng": "-88.2",
    "category": "Grocery",
    "address": "",
    "address2": "",
    "city": "WAUKESHA",
    "state": "WI",
    "postal": "53186",
    "phone": "",
    "web": "http://veganessentials.com"
  },
  {
    "id": "33",
    "name": "Vegan Haven",
    "lat": "47.67",
    "lng": "-122.31",
    "category": "Grocery",
    "address": "5270 B University Way NE",
    "address2": "",
    "city": "Seattle",
    "state": "WA",
    "postal": "98105",
    "phone": "",
    "web": "http://veganhaven.org/"
  },
  {
    "id": "34",
    "name": "Vegan Supply (Online)",
    "lat": "56.13",
    "lng": "-106.35",
    "category": "Grocery",
    "address": "",
    "address2": "",
    "city": "Canada",
    "state": "",
    "postal": "",
    "phone": "",
    "web": ""
  },
  {
    "id": "50",
    "name": "Whole Foods Market - Bridgeport",
    "lat": "45.39",
    "lng": "-122.75",
    "category": "Grocery",
    "address": "7380 SW Bridgeport Rd",
    "address2": "",
    "city": "Tigard",
    "state": "OR",
    "postal": "97224",
    "phone": "",
    "web": ""
  },
  {
    "id": "35",
    "name": "Whole Foods Market - Hollywood (Portland)",
    "lat": "45.54",
    "lng": "-122.62",
    "category": "Grocery",
    "address": "4301 NE Sandy Blvd.",
    "address2": "",
    "city": "Portland",
    "state": "Oregon",
    "postal": "97213",
    "phone": "",
    "web": ""
  },
  {
    "id": "52",
    "name": "Whole Foods Market - Tanasbourne",
    "lat": "45.53",
    "lng": "-122.88",
    "category": "Grocery",
    "address": "19440 NW CORNELL RD",
    "address2": "",
    "city": "Hillsboro",
    "state": "OR",
    "postal": "97124",
    "phone": "",
    "web": ""
  },
  {
    "id": "78",
    "name": "Whole Foods Market- Greenway",
    "lat": "45.44",
    "lng": "-122.8",
    "category": "Grocery",
    "address": "12220 SW Scholls Ferry Rd",
    "address2": "",
    "city": "Tigard",
    "state": "OR",
    "postal": "97223",
    "phone": "",
    "web": ""
  },
  {
    "id": "79",
    "name": "Earthly Gourmet",
    "lat": "45.496750",
    "lng": "-122.648330",
    "category": "Distributor",
    "address": "2143 SE Lafayette St",
    "address2": "",
    "city": "Portland",
    "state": "OR",
    "postal": "97202",
    "phone": "",
    "web": ""
  },
  {
    "id": "80",
    "name": "First Alternative Co-Op (North)",
    "lat": "44.5790727",
    "lng": "-123.2823809",
    "category": "Grocery",
    "address": "2855 NW Grant Ave",
    "city": "Corvallis",
    "state": "OR",
    "postal": "97330",
    "phone": "",
    "web": ""
  },
  {
    "id": "81",
    "name": "Grassroots",
    "lat": "34.1124506",
    "lng": "-118.15032539",
    "category": "Grocery",
    "address": "1119 Fair Oaks",
    "city": "South Pasadena",
    "state": "CA",
    "postal": "91030",
    "phone": "",
    "web": ""
  },
  {
    "id": "82",
    "name": "Lassen's Natural Foods",
    "lat": "34.264154",
    "lng": "-119.23711800000001",
    "category": "Grocery",
    "address": "4071 E Main St",
    "city": "South Pasadena",
    "state": "CA",
    "postal": "93003",
    "phone": "",
    "web": ""
  },
  {
    "id": "83",
    "name": "Lassen's Natural Foods",
    "lat": "34.0777967",
    "lng": "-118.2589743",
    "category": "Grocery",
    "address": "1631 W Sunset Blvd",
    "city": "Los Angeles",
    "state": "CA",
    "postal": "90026",
    "phone": "",
    "web": ""
  },
  {
    "id": "84",
    "name": "Lassen's Natural Foods",
    "lat": "34.061662",
    "lng": "-118.3461719",
    "category": "Grocery",
    "address": "710 S La Brea",
    "city": "Los Angeles",
    "state": "CA",
    "postal": "90036",
    "phone": "",
    "web": ""
  },
  {
    "id": "85",
    "name": "Lassen's Natural Foods",
    "lat": "35.294091",
    "lng": "-120.6720295",
    "category": "Grocery",
    "address": "896 E. Foothill Blvd",
    "city": "San Luis Obispo",
    "state": "CA",
    "postal": "93405",
    "phone": "",
    "web": ""
  },
  {
    "id": "86",
    "name": "Lassen's Natural Foods",
    "lat": "35.3868614",
    "lng": "-119.663986",
    "category": "Grocery",
    "address": "4308 California Ave",
    "city": "Bakersfield",
    "state": "CA",
    "postal": "93309",
    "phone": "",
    "web": ""
  },
  {
    "id": "87",
    "name": "Lassen's Natural Foods",
    "lat": "34.1743195",
    "lng": "-118.8492157",
    "category": "Grocery",
    "address": "2150 E Thousand Oaks",
    "city": "Thousand Oaks",
    "state": "CA",
    "postal": "91362",
    "phone": "",
    "web": ""
  },
  {
    "id": "88",
    "name": "Lassen's Natural Foods",
    "lat": "34.2816437",
    "lng": "-118.7411354",
    "category": "Grocery",
    "address": "2955 Cochran St",
    "city": "Simi Valley",
    "state": "CA",
    "postal": "93065",
    "phone": "",
    "web": ""
  },
  {
    "id": "88",
    "name": "Lassen's Natural Foods",
    "lat": "34.109743",
    "lng": "-118.2892619",
    "category": "Grocery",
    "address": "2080 Hillhurst Ave",
    "city": "Los Angeles",
    "state": "CA",
    "postal": "90027",
    "phone": "",
    "web": ""
  },
  {
    "id": "89",
    "name": "The Oregon Cheese Cave",
    "lat": "42.2756399",
    "lng": "-122.81912",
    "category": "Grocery",
    "address": "310 N Main St",
    "city": "Phoenix",
    "state": "OR",
    "postal": "97535",
    "phone": "",
    "web": ""
  },
  {
    "id": "90",
    "name": "Farmer's Market of Grapevine",
    "lat": "32.9361327",
    "lng": "-97.0808115",
    "category": "Grocery",
    "address": "520 S Main St #203",
    "city": "Grapevine",
    "state": "TX",
    "postal": "76051",
    "phone": "",
    "web": "http://farmersmarketofgrapevine.com"
  },
  {
    "id": "91",
    "name": "Rabbit Food Grocery",
    "lat": "30.2976062",
    "lng": "-97.7694963",
    "category": "Grocery",
    "address": "2425 Exposition Blvd Ste A",
    "city": "Austin",
    "state": "TX",
    "postal": "78703",
    "phone": "",
    "web": "http://rabbitfoodgrocery.com"
  }
]